{"name": "communities", "children": [{"default_alp":null,"plan_id":"paezyjdqejakxedqkpqrb7n8emn6rd","name":"Eskaton","company":null,"time_zone":"America/Los_Angeles","longitude":null,"postal_code":"95818","latitude":null,"id":"598bknkw8dgmyrgmnj69wz8rkv5yk"},{"default_alp":null,"plan_id":"eq9q79a8pv7gva5jzx9qjjajypr88m","name":"Sunny Grove","company":null,"time_zone":"America/New_York","longitude":null,"postal_code":"20137","latitude":null,"id":"5nwz5demn9w5wajgk95wkjje5znwa"},{"default_alp":null,"plan_id":"k5yyroapxqj5pgo8wwzmq9yqxzyj7a","name":"All Seasons","company":null,"time_zone":"America/Los_Angeles","longitude":null,"postal_code":"95662","latitude":null,"id":"6p7zk76mxn6rn95okrwwv6aopnazwx"},{"default_alp":null,"plan_id":"morowabwnrjgmndomopvyrxzvdyjam","name":"Pacific Gardens","company":null,"time_zone":"US/Pacific","longitude":null,"postal_code":"95051","latitude":null,"id":"6wrd86x7xa5pgaezbpeaeb7p7dx5v"},{"default_alp":null,"plan_id":"ym6v67vjromzppajkyz67g9xp8xymm","name":"Cox Communications","company":null,"time_zone":"America/New_York","longitude":null,"postal_code":"30328","latitude":null,"id":"77qb7zdrmeo7xon75nagn5oz7ajxm"},{"default_alp":null,"plan_id":"xw9k8mjrjdevkg5585xdrv6bvegmem","name":"Villa Siena","company":null,"time_zone":"US/Pacific","longitude":null,"postal_code":"94040","latitude":null,"id":"7e88a9gqmn9kegkdyzvmqkygepmxz"},{"default_alp":null,"plan_id":"qjxdbpxqj5zyd58ymdbevw9n5oyo7","name":"UNC Brookdale Chapel Hill","company":null,"time_zone":"US/Eastern","longitude":null,"postal_code":"27517","latitude":null,"id":"7mb8eyqr7pvrgbdznwmpgyjbrxboe6"},{"default_alp":null,"plan_id":"wokxem7gmgva8bkpea9edyg8oz87m","name":"Prod Ped","company":null,"time_zone":"US/Pacific","longitude":null,"postal_code":"95014","latitude":null,"id":"8gn9aq9q8jwkoyzj58wxony5r7ydy"},{"default_alp":null,"plan_id":"pja6o89r8nejgdom67pyjrx5azb9mo","name":"Summer House","company":null,"time_zone":"America/Los_Angeles","longitude":null,"postal_code":"95014","latitude":null,"id":"96w9q5rvarxpoypeod8aqgreno6wm"},{"default_alp":null,"plan_id":"76exn9nbejxp6mbbgj986nvb7rmzr","name":"Test Comm","company":null,"time_zone":"US/Pacific","longitude":null,"postal_code":"95014","latitude":null,"id":"aezd9oo9keyjwgvebj77v5kevenxmo"},{"default_alp":null,"plan_id":"9njgp8r8ep5grbkbbqxo877gknd7e","name":"AiCare","company":null,"time_zone":"US/Pacific","longitude":null,"postal_code":"95134","latitude":null,"id":"b866b5jwgpk5zkpz5p6werobvxw8yy"},{"default_alp":null,"plan_id":"xwn5qe87kqeaw8wawzdaywwb5qyyn8","name":"UNC Brookdale Lawndale","company":null,"time_zone":"US/Eastern","longitude":null,"postal_code":"27455","latitude":null,"id":"b87p7gvmpryxg9pakwyv6benqgmxwe"},{"default_alp":null,"plan_id":"9d6bjxddzwyajer96qke596p7ndmb","name":"PARC Living Westerleigh","company":null,"time_zone":"America/Vancouver","longitude":null,"postal_code":"V7V 0B3","latitude":null,"id":"dajpqmxj78mpvo7b8beejpgk8jbvp"},{"default_alp":null,"plan_id":"wggv8gkbrmvpy8gzwz6nogd8dyxnxv","name":"Production Canaries","company":null,"time_zone":"US/Pacific","longitude":null,"postal_code":"95014","latitude":null,"id":"db6gwgzw865vjv9qmpqybqmgmm6d6"},{"default_alp":null,"plan_id":"dxwbe8g98p6yoonxardjvojzzdz6r","name":"Heritage Estates Orig","company":null,"time_zone":"US/Pacific","longitude":null,"postal_code":"95055","latitude":null,"id":"eqkqy5rgap6yyexm6mwxaqg6d5zr98"},{"default_alp":null,"plan_id":"ded8757mxobyare9x85nxnk7dzw7y","name":"Revera Kingsway","company":null,"time_zone":"America/Toronto","longitude":null,"postal_code":"M8X 2Z5","latitude":null,"id":"gaav58gnzpqmm7mwjv9qane9bedy9n"},{"default_alp":null,"plan_id":"5mzddarzx6wmm97b58xvmzve5jpnda","name":"Revera Horizon Place","company":null,"time_zone":"America/Toronto","longitude":null,"postal_code":"N6H 5G3","latitude":null,"id":"ggxqmqorqgo77yxdv5rz7kmm8parq"},{"default_alp":null,"plan_id":"n8zxrp9qaa8kem8oj9w6ar77yg5o8g","name":"Amica London","company":null,"time_zone":"America/Toronto","longitude":null,"postal_code":"N6G 0C1","latitude":null,"id":"gj6ak6j68yqbp8pwpa5zypekrgxa8o"},{"default_alp":null,"plan_id":"gak5w7z976ormgrpnvmvaxoekqqakj","name":"UNC Brookdale Cary","company":null,"time_zone":"US/Eastern","longitude":null,"postal_code":"27513","latitude":null,"id":"jbx7m8p7zavkgxrwpkx68bnvw9b5a"},{"default_alp":null,"plan_id":"adnm9x9aqzmbnzzr7ygp6qxmyezmg","name":"Madera Villa","company":null,"time_zone":"US/Pacific","longitude":null,"postal_code":"94086","latitude":null,"id":"jeokmjv6587earmre8e6jezpgpemq5"},{"default_alp":null,"plan_id":"ymekv7mwooaxy9drjkgndmee6aeopv","name":"Heritage Estates","company":null,"time_zone":"America/Los_Angeles","longitude":null,"postal_code":"94550","latitude":null,"id":"n8vymgzz66qmzw99vnqmqneknx8nqw"},{"default_alp":null,"plan_id":"rbpor8659dzeowm98krvkzjk6mrzo9","name":"Channing House","company":null,"time_zone":"US/Pacific","longitude":null,"postal_code":"94031","latitude":null,"id":"nepb8vpx8kx88k8zkwb9ym5ov659ja"},{"default_alp":null,"plan_id":"qaowz68zkd58amyp9oo576dyxbmqye","name":"Bangalore Canary","company":null,"time_zone":"US/Eastern","longitude":null,"postal_code":"560035","latitude":null,"id":"o9av9qez77rj5mqbypq5nnbnyx5bgw"},{"default_alp":null,"plan_id":"gakyrvn5o5vrqjd9mnzvox9jdmvj8g","name":"UNC The Stratford","company":null,"time_zone":"US/Eastern","longitude":null,"postal_code":"27516","latitude":null,"id":"og8o5jp7xj67j8dj8w8k9vn8bjp67"},{"default_alp":null,"plan_id":"v5k97o5q9w5z8bgbwgrq9kxmodape","name":"UNC Temp Community","company":null,"time_zone":"US/Eastern","longitude":null,"postal_code":"27455","latitude":null,"id":"opp5z5ayjq5oamnvwnjev6qyb6yerd"},{"default_alp":null,"plan_id":"o9gypbazoked9mxba5zn8nj7y8ad9","name":"The Morse Residence","company":null,"time_zone":"US/Eastern","longitude":null,"postal_code":"47803","latitude":null,"id":"pjrvkdq98xye9qrkxvvenw6p6prqex"},{"default_alp":null,"plan_id":"gdxdwzbb9q7bo689xdydyvvq6jnd9","name":"UNC Chatham Commons","company":null,"time_zone":"US/Eastern","longitude":null,"postal_code":"27511","latitude":null,"id":"vorkgrg559bpq9j6kxn6erojrv5kyk"},{"default_alp":null,"plan_id":"rpzv99a7pm7zakeapppy5kogqv7eyp","name":"HomeThrive","company":null,"time_zone":"America/Chicago","longitude":null,"postal_code":"60062","latitude":null,"id":"wgw5kwnoxwrmonrok6m69ezg85abnd"},{"default_alp":null,"plan_id":"rxwwdz7qz5mwvkykyojbnqg6pvnnr","name":"PREV-BLR-LAB","company":null,"time_zone":"US/Pacific","longitude":null,"postal_code":"560034","latitude":null,"id":"ygwve7qn757kropyqqrpv897wpk6g"},{"default_alp":null,"plan_id":"6p7wqrjawxvvqneddbndd7zma7xpbo","name":"Revera Beechwood","company":null,"time_zone":"America/Toronto","longitude":null,"postal_code":"L4W 4L7","latitude":null,"id":"zrjyawwz7wpdvxp6gqmegpd7vnx5gb"}]}
